[
  {
    "address": "Friedenauer Höhe 10, Friedenau, Berlin (12159)",
    "city": "Berlin",
    "lat": 52.4777779,
    "lon": 13.3393098,
    "fullAddress": "10, Friedenauer Höhe, Friedenau, Tempelhof-Schöneberg, Berlin, 12159, Deutschland",
    "timestamp": "2025-03-24T20:59:03.558Z"
  },
  {
    "address": "Woelckpromenade 7, Weißensee, Berlin (13086)",
    "city": "Berlin",
    "lat": 52.552943,
    "lon": 13.4540515,
    "fullAddress": "7, Woelckpromenade, Weißensee, Pankow, Berlin, 13086, Deutschland",
    "timestamp": "2025-03-24T20:59:04.490Z"
  },
  {
    "address": "Schönhauser Allee 44, Prenzlauer Berg, Berlin (10435)",
    "city": "Berlin",
    "lat": 52.540385,
    "lon": 13.4125645,
    "fullAddress": "mmaah Korean BBQ express, 44, Schönhauser Allee, Bremer Höhe, Prenzlauer Berg, Pankow, Berlin, 10435, Deutschland",
    "timestamp": "2025-03-24T20:59:05.527Z"
  },
  {
    "address": "Friedenauer Höhe 19A, Friedenau, Berlin (12159)",
    "city": "Berlin",
    "lat": 52.4769821,
    "lon": 13.3370458,
    "fullAddress": "19A, Friedenauer Höhe, Friedenau, Tempelhof-Schöneberg, Berlin, 12159, Deutschland",
    "timestamp": "2025-03-24T20:59:06.557Z"
  },
  {
    "address": "Grünauer Straße 20, Altglienicke, Berlin (12524)",
    "city": "Berlin",
    "lat": 52.419096,
    "lon": 13.543449,
    "fullAddress": "20, Grünauer Straße, Altglienicke, Treptow-Köpenick, Berlin, 12524, Deutschland",
    "timestamp": "2025-03-24T20:59:07.491Z"
  },
  {
    "address": "Grünauer Straße 16, Altglienicke, Berlin (12524)",
    "city": "Berlin",
    "lat": 52.4192279,
    "lon": 13.5423798,
    "fullAddress": "16, Grünauer Straße, Altglienicke, Treptow-Köpenick, Berlin, 12524, Deutschland",
    "timestamp": "2025-03-24T20:59:08.493Z"
  },
  {
    "address": "Friedenauer Höhe 17, Friedenau, Berlin (12159)",
    "city": "Berlin",
    "lat": 52.4772558,
    "lon": 13.3375332,
    "fullAddress": "17, Friedenauer Höhe, Friedenau, Tempelhof-Schöneberg, Berlin, 12159, Deutschland",
    "timestamp": "2025-03-24T20:59:09.500Z"
  },
  {
    "address": "Manfred-von-Richthofen-Str. 28, Tempelhof, Berlin (12101)",
    "city": "Berlin",
    "lat": 52.4821314,
    "lon": 13.38020303119739,
    "fullAddress": "28, Manfred-von-Richthofen-Straße, Gartenstadt Neu-Tempelhof, Tempelhof, Tempelhof-Schöneberg, Berlin, 12101, Deutschland",
    "timestamp": "2025-03-24T20:59:10.528Z"
  },
  {
    "address": "Beusselstraße 65, Moabit, Berlin (10553)",
    "city": "Berlin",
    "lat": 52.5291617,
    "lon": 13.3284433,
    "fullAddress": "65, Beusselstraße, Moabit, Mitte, Berlin, 10553, Deutschland",
    "timestamp": "2025-03-24T20:59:11.510Z"
  },
  {
    "address": "Eylauerstraße 13, Kreuzberg, Berlin (10965)",
    "city": "Berlin",
    "lat": 52.4855482,
    "lon": 13.37434103404447,
    "fullAddress": "13, Eylauer Straße, Kreuzberg, Friedrichshain-Kreuzberg, Berlin, 10965, Deutschland",
    "timestamp": "2025-03-24T20:59:12.498Z"
  },
  {
    "address": "Erich-Weinert-Straße 16, Prenzlauer Berg, Berlin (10439)",
    "city": "Berlin",
    "lat": 52.551539,
    "lon": 13.4166711,
    "fullAddress": "16, Erich-Weinert-Straße, Arnimkiez, Prenzlauer Berg, Pankow, Berlin, 10439, Deutschland",
    "timestamp": "2025-03-24T20:59:13.530Z"
  },
  {
    "address": "Pufendorfstraße 4, Friedrichshain, Berlin (10249)",
    "city": "Berlin",
    "lat": 52.5224094,
    "lon": 13.4384357,
    "fullAddress": "4, Pufendorfstraße, Friedrichshain, Friedrichshain-Kreuzberg, Berlin, 10249, Deutschland",
    "timestamp": "2025-03-24T20:59:14.467Z"
  },
  {
    "address": "Friedrichstraße 121, Mitte, Berlin (10117)",
    "city": "Berlin",
    "lat": 52.5264159,
    "lon": 13.3869841,
    "fullAddress": "Sanku Maots'ai, 121, Friedrichstraße, Mitte, Berlin, 10117, Deutschland",
    "timestamp": "2025-03-24T20:59:15.573Z"
  },
  {
    "address": "Genthiner Strasse 49, Tiergarten, Berlin (10785)",
    "city": "Berlin",
    "lat": 52.5014452,
    "lon": 13.3586291,
    "fullAddress": "49, Genthiner Straße, Botschaftsviertel, Tiergarten, Mitte, Berlin, 10785, Deutschland",
    "timestamp": "2025-03-24T20:59:16.486Z"
  },
  {
    "address": "Am Köllnischen Park 11, Mitte, Berlin (10179)",
    "city": "Berlin",
    "lat": 52.5120026,
    "lon": 13.4151284,
    "fullAddress": "11, Am Köllnischen Park, Luisenstadt, Mitte, Berlin, 10179, Deutschland",
    "timestamp": "2025-03-24T20:59:17.491Z"
  },
  {
    "address": "David-Friedländer-Weg 98, Falkenberg, Berlin (13057)",
    "city": "Berlin",
    "lat": 52.5728706,
    "lon": 13.560950902935728,
    "fullAddress": "98, David-Friedländer-Weg, Falkenberg, Lichtenberg, Berlin, 13057, Deutschland",
    "timestamp": "2025-03-24T20:59:18.515Z"
  },
  {
    "address": "Dolgenseestr. 8a, Friedrichsfelde, Berlin (10319)",
    "city": "Berlin",
    "lat": 52.4938077,
    "lon": 13.5073306,
    "fullAddress": "Dolgensee-Apotheke, 8a, Dolgenseestraße, Sewan-Viertel, Friedrichsfelde, Lichtenberg, Berlin, 10319, Deutschland",
    "timestamp": "2025-03-24T20:59:19.600Z"
  },
  {
    "address": "Adlershofer Straße 6, Köpenick, Berlin (12557)",
    "city": "Berlin",
    "lat": 52.4427394,
    "lon": 13.5671227,
    "fullAddress": "6, Adlershofer Straße, Spindlersfeld, Köpenick, Treptow-Köpenick, Berlin, 12557, Deutschland",
    "timestamp": "2025-03-24T20:59:20.499Z"
  },
  {
    "address": "Weidenweg 75, Friedrichshain, Berlin (10247)",
    "city": "Berlin",
    "lat": 52.51973445,
    "lon": 13.457057913305613,
    "fullAddress": "75, Weidenweg, Hausburgviertel, Friedrichshain, Friedrichshain-Kreuzberg, Berlin, 10247, Deutschland",
    "timestamp": "2025-03-24T20:59:21.542Z"
  },
  {
    "address": "Bernhard-Weiß-Straße 1-3, Mitte, Berlin (10178)",
    "city": "Berlin",
    "lat": 52.52419335546003,
    "lon": 13.417235345844785,
    "fullAddress": "Bernhard-Weiß-Straße, Mitte, Berlin, 10178, Deutschland",
    "timestamp": "2025-03-24T20:59:22.757Z"
  },
  {
    "address": "Eisenacher Str. 19, Mariendorf, Berlin (12109)",
    "city": "Berlin",
    "lat": 52.4473698,
    "lon": 13.392756683970099,
    "fullAddress": "19, Eisenacher Straße, Mariendorf, Tempelhof-Schöneberg, Berlin, Teltow, 12109, Deutschland",
    "timestamp": "2025-03-24T20:59:23.500Z"
  },
  {
    "address": "Klara Franke Straße 12, Moabit, Berlin (10557)",
    "city": "Berlin",
    "lat": 52.5322553,
    "lon": 13.361902377657099,
    "fullAddress": "12, Klara-Franke-Straße, Europacity, Moabit, Mitte, Berlin, 10557, Deutschland",
    "timestamp": "2025-03-24T20:59:24.499Z"
  },
  {
    "address": "Otto-Suhr-Allee 129, Charlottenburg, Berlin (10585)",
    "city": "Berlin",
    "lat": 52.5181769,
    "lon": 13.3032878,
    "fullAddress": "129, Otto-Suhr-Allee, Charlottenburg, Charlottenburg-Wilmersdorf, Berlin, 10585, Deutschland",
    "timestamp": "2025-03-24T20:59:25.514Z"
  },
  {
    "address": "Stromstraße 36, Moabit, Berlin (10551)",
    "city": "Berlin",
    "lat": 52.531307999999996,
    "lon": 13.342456296063677,
    "fullAddress": "Habyt Co-Living Berlin, 36, Stromstraße, Moabit, Mitte, Berlin, 10551, Deutschland",
    "timestamp": "2025-03-24T20:59:26.507Z"
  },
  {
    "address": "Nassauische Straße 35, Wilmersdorf, Berlin (10717)",
    "city": "Berlin",
    "lat": 52.49289126141122,
    "lon": 13.32641091605624,
    "fullAddress": "Nassauische Straße, Wilmersdorf, Charlottenburg-Wilmersdorf, Berlin, 10717, Deutschland",
    "timestamp": "2025-03-24T20:59:27.613Z"
  },
  {
    "address": "Neugütlestraße 3, Sillenbuch, Stuttgart Sillenbuch (70619)",
    "city": "Stuttgart Sillenbuch",
    "lat": 48.748267299999995,
    "lon": 9.213492550000002,
    "fullAddress": "3, Neugütlestraße, Sillenbuch, Stuttgart, Baden-Württemberg, 70619, Deutschland",
    "timestamp": "2025-03-24T21:02:04.096Z"
  },
  {
    "address": "Aachener Straße 8, Bad Cannstatt, Stuttgart (70376)",
    "city": "Stuttgart",
    "lat": 48.806596,
    "lon": 9.210719079508102,
    "fullAddress": "8, Aachener Straße, Neckarvorstadt, Bad Cannstatt, Stuttgart, Baden-Württemberg, 70376, Deutschland",
    "timestamp": "2025-03-24T21:02:05.137Z"
  },
  {
    "address": "Immenhofer Straße, Süd, Stuttgart (70180)",
    "city": "Stuttgart",
    "lat": 48.76720816760281,
    "lon": 9.17543058060322,
    "fullAddress": "Immenhofer Straße, Lehen, Stuttgart-Süd, Stuttgart, Baden-Württemberg, 70180, Deutschland",
    "timestamp": "2025-03-24T21:02:06.113Z"
  },
  {
    "address": "Nord, Stuttgart / Feuerbach (70469)",
    "city": "Stuttgart / Feuerbach",
    "lat": 48.8111301,
    "lon": 9.1778621,
    "fullAddress": "ibis budget Stuttgart City Nord, 28, Siemensstraße, Feuerbach-Ost, Feuerbach, Stuttgart, Baden-Württemberg, 70469, Deutschland",
    "timestamp": "2025-03-24T21:02:07.170Z"
  },
  {
    "address": "Sonnenberg, Stuttgart (70597)",
    "city": "Stuttgart",
    "lat": 48.7415827,
    "lon": 9.1525726,
    "fullAddress": "Sonnenberg, Möhringen, Stuttgart, Baden-Württemberg, 70597, Deutschland",
    "timestamp": "2025-03-24T21:02:08.119Z"
  },
  {
    "address": "Nord, Stuttgart (70191)",
    "city": "Stuttgart",
    "lat": 48.798732650000005,
    "lon": 9.189108225718751,
    "fullAddress": "70191, Nordbahnhof, Stuttgart-Nord, Stuttgart, Baden-Württemberg, Deutschland",
    "timestamp": "2025-03-24T21:02:09.134Z"
  },
  {
    "address": "Rohr, Stuttgart (70565)",
    "city": "Stuttgart",
    "lat": 48.7172,
    "lon": 9.106,
    "fullAddress": "Rohr, Vaihingen, Stuttgart, Baden-Württemberg, Deutschland",
    "timestamp": "2025-03-24T21:02:10.112Z"
  },
  {
    "address": "Zuffenhausen, Stuttgart (70435)",
    "city": "Stuttgart",
    "lat": 48.8312987,
    "lon": 9.1674403,
    "fullAddress": "Zuffenhausen, Stuttgart, Baden-Württemberg, Deutschland",
    "timestamp": "2025-03-24T21:02:11.112Z"
  },
  {
    "address": "Weilimdorf, Stuttgart (70469)",
    "city": "Stuttgart",
    "lat": 48.815276,
    "lon": 9.112444,
    "fullAddress": "Weilimdorf, Stuttgart, Baden-Württemberg, 70499, Deutschland",
    "timestamp": "2025-03-24T21:02:12.093Z"
  },
  {
    "address": "Botnang, Stuttgart (70195)",
    "city": "Stuttgart",
    "lat": 48.778495,
    "lon": 9.1295324,
    "fullAddress": "Botnang, Stuttgart, Baden-Württemberg, 70195, Deutschland",
    "timestamp": "2025-03-24T21:02:13.091Z"
  },
  {
    "address": "Plieningen, Stuttgart (70599)",
    "city": "Stuttgart",
    "lat": 48.7113947,
    "lon": 9.198865088043112,
    "fullAddress": "Plieningen, Stuttgart, Baden-Württemberg, 70599, Deutschland",
    "timestamp": "2025-03-24T21:02:14.123Z"
  },
  {
    "address": "West, Stuttgart (70197)",
    "city": "Stuttgart",
    "lat": 48.7743488,
    "lon": 9.102470792720416,
    "fullAddress": "70197, Wildpark, Stuttgart-West, Stuttgart, Baden-Württemberg, Deutschland",
    "timestamp": "2025-03-24T21:02:15.137Z"
  },
  {
    "address": "West, Stuttgart (70176)",
    "city": "Stuttgart",
    "lat": 48.777793900000006,
    "lon": 9.162043363706221,
    "fullAddress": "70176, Rosenberg, Stuttgart-West, Stuttgart, Baden-Württemberg, Deutschland",
    "timestamp": "2025-03-24T21:02:16.098Z"
  },
  {
    "address": "Beim Eulenhof 2, Vaihingen, Stuttgart (70569)",
    "city": "Stuttgart",
    "lat": 48.744931550000004,
    "lon": 9.109897850000007,
    "fullAddress": "2, Beim Eulenhof, Dachswald, Vaihingen, Stuttgart, Baden-Württemberg, 70569, Deutschland",
    "timestamp": "2025-03-24T21:02:17.105Z"
  },
  {
    "address": "Wangener Straße 27, Ost, Stuttgart (70188)",
    "city": "Stuttgart",
    "lat": 48.7868311,
    "lon": 9.218412903742205,
    "fullAddress": "27, Wangener Straße, Gaisburg, Stuttgart-Ost, Stuttgart, Baden-Württemberg, 70188, Deutschland",
    "timestamp": "2025-03-24T21:02:18.186Z"
  },
  {
    "address": "König-Karl-Straße 84, Bad Cannstatt, Stuttgart (70372)",
    "city": "Stuttgart",
    "lat": 48.801021500000004,
    "lon": 9.213052077408056,
    "fullAddress": "84, König-Karl-Straße, Veielbrunnen, Bad Cannstatt, Stuttgart, Baden-Württemberg, 70372, Deutschland",
    "timestamp": "2025-03-24T21:02:19.137Z"
  },
  {
    "address": "Wielandstr. 8, West, Stuttgart (70193)",
    "city": "Stuttgart",
    "lat": 48.7762866,
    "lon": 9.139289742950925,
    "fullAddress": "8, Wielandstraße, Kräherwald, Stuttgart-West, Stuttgart, Baden-Württemberg, 70193, Deutschland",
    "timestamp": "2025-03-24T21:02:20.179Z"
  },
  {
    "address": "In der Schranne 39, Vaihingen, Stuttgart (70569)",
    "city": "Stuttgart",
    "lat": 48.741132050000004,
    "lon": 9.10454245,
    "fullAddress": "39, In der Schranne, Dachswald, Vaihingen, Stuttgart, Baden-Württemberg, 70569, Deutschland",
    "timestamp": "2025-03-24T21:02:21.105Z"
  },
  {
    "address": "Kernerstraße, Mitte, Stuttgart (70182)",
    "city": "Stuttgart",
    "lat": 48.77914338116308,
    "lon": 9.190347594182477,
    "fullAddress": "Kernerstraße, Diemershalde, Stuttgart-Mitte, Stuttgart, Baden-Württemberg, 70182, Deutschland",
    "timestamp": "2025-03-24T21:02:22.107Z"
  },
  {
    "address": "Wernerstraße, Feuerbach, Stuttgart (70469)",
    "city": "Stuttgart",
    "lat": 48.823732486861495,
    "lon": 9.170457370011082,
    "fullAddress": "Wernerstraße, Siegelberg, Feuerbach, Stuttgart, Baden-Württemberg, 70469, Deutschland",
    "timestamp": "2025-03-24T21:02:23.107Z"
  },
  {
    "address": "Werastraße, Mitte, Stuttgart (70190)",
    "city": "Stuttgart",
    "lat": 48.78717368305104,
    "lon": 9.194892308639046,
    "fullAddress": "Werastraße, Kernerviertel, Stuttgart-Mitte, Stuttgart-Ost, Stuttgart, Baden-Württemberg, 70190, Deutschland",
    "timestamp": "2025-03-24T21:02:24.103Z"
  },
  {
    "address": "Wallensteinstr. 29, Freiberg, Stuttgart (70437)",
    "city": "Stuttgart",
    "lat": 48.8385483,
    "lon": 9.205416490759932,
    "fullAddress": "29, Wallensteinstraße, Freiberg, Mühlhausen, Stuttgart, Baden-Württemberg, 70437, Deutschland",
    "timestamp": "2025-03-24T21:02:25.099Z"
  },
  {
    "address": "Fraubronnstraße, Plieningen, Stuttgart (70599)",
    "city": "Stuttgart",
    "lat": 48.70366819561291,
    "lon": 9.203696266249269,
    "fullAddress": "Fraubronnstraße, Plieningen, Stuttgart, Baden-Württemberg, 70599, Deutschland",
    "timestamp": "2025-03-24T21:02:26.091Z"
  },
  {
    "address": "Löwenstraße, Degerloch, Stuttgart (70597)",
    "city": "Stuttgart",
    "lat": 48.74869407745659,
    "lon": 9.179416895597447,
    "fullAddress": "Löwenstraße, Waldau, Degerloch, Stuttgart, Baden-Württemberg, 70597, Deutschland",
    "timestamp": "2025-03-24T21:02:27.106Z"
  },
  {
    "address": "Heimgartenstraße 43, Hedelfingen, Stuttgart (70329)",
    "city": "Stuttgart",
    "lat": 48.75655985,
    "lon": 9.258410249999997,
    "fullAddress": "43, Heimgartenstraße, Hedelfingen, Stuttgart, Baden-Württemberg, 70329, Deutschland",
    "timestamp": "2025-03-24T21:02:28.098Z"
  },
  {
    "address": "Möhringen, Stuttgart (70567)",
    "city": "Stuttgart",
    "lat": 48.7278158,
    "lon": 9.1477922,
    "fullAddress": "Möhringen, Stuttgart, Baden-Württemberg, 70567, Deutschland",
    "timestamp": "2025-03-24T21:02:29.089Z"
  },
  {
    "address": "Steckfeld, Stuttgart (70599)",
    "city": "Stuttgart",
    "lat": 48.7190461,
    "lon": 9.1950895,
    "fullAddress": "Steckfeld, Plieningen, Stuttgart, Baden-Württemberg, 70599, Deutschland",
    "timestamp": "2025-03-24T21:02:30.092Z"
  }
]